{
  "center_distance_km": 53.7,
  "optimized_distance_km": 35.3,
  "savings_km": 18.4,
  "savings_percent": 34.3,
  "turnpoints": [
    {
      "index": 0,
      "name": "DECOLLO COLLINET",
      "lat": 42.4936,
      "lon": 12.89738,
      "radius": 100,
      "type": "TAKEOFF",
      "cumulative_center_km": 0.0,
      "cumulative_optimized_km": 0.0
    },
    {
      "index": 1,
      "name": "ANTENNA LISCIANO",
      "lat": 42.45835,
      "lon": 12.92683,
      "radius": 4500,
      "type": "SSS",
      "cumulative_center_km": 4.6,
      "cumulative_optimized_km": 0.1
    },
    {
      "index": 2,
      "name": "ANTENNA LISCIANO",
      "lat": 42.45835,
      "lon": 12.92683,
      "radius": 400,
      "type": "",
      "cumulative_center_km": 4.6,
      "cumulative_optimized_km": 4.2
    },
    {
      "index": 3,
      "name": "CASTELFRANCO",
      "lat": 42.43505,
      "lon": 12.89175,
      "radius": 3000,
      "type": "",
      "cumulative_center_km": 8.5,
      "cumulative_optimized_km": 5.0
    },
    {
      "index": 4,
      "name": "COLLE MINUTO",
      "lat": 42.5698,
      "lon": 12.84905,
      "radius": 5500,
      "type": "",
      "cumulative_center_km": 23.9,
      "cumulative_optimized_km": 13.1
    },
    {
      "index": 5,
      "name": "LAGHETTO PESCA",
      "lat": 42.49167,
      "lon": 12.80852,
      "radius": 400,
      "type": "",
      "cumulative_center_km": 33.2,
      "cumulative_optimized_km": 18.0
    },
    {
      "index": 6,
      "name": "CAMPO SPORTIVO S",
      "lat": 42.49552,
      "lon": 12.87857,
      "radius": 1000,
      "type": "",
      "cumulative_center_km": 38.9,
      "cumulative_optimized_km": 22.4
    },
    {
      "index": 7,
      "name": "COLLI SUL VELINO",
      "lat": 42.49887,
      "lon": 12.77935,
      "radius": 400,
      "type": "",
      "cumulative_center_km": 47.1,
      "cumulative_optimized_km": 29.2
    },
    {
      "index": 8,
      "name": "ATTER- POGGIO",
      "lat": 42.48508,
      "lon": 12.85717,
      "radius": 2000,
      "type": "ESS",
      "cumulative_center_km": 53.7,
      "cumulative_optimized_km": 33.4
    },
    {
      "index": 9,
      "name": "ATTER- POGGIO",
      "lat": 42.48508,
      "lon": 12.85717,
      "radius": 100,
      "type": "",
      "cumulative_center_km": 53.7,
      "cumulative_optimized_km": 35.3
    }
  ],
  "optimization_angle_step": 10
}